Loc_name,Latitude,Longitude,X,Y,vehicleTypes (Aircraft, Bart, Bicycle, Bus, Car, Taxi)
Santa Cruz,36.9741,122.0308,425,880,1|0|1|1|1|1
San Francisco,37.7749,122.4194,110,75,1|1|1|1|1|1
San Ramon,37.7799,121.9780,480,85,0|0|1|1|1|1
Dublin,37.7022,121.9358,515,150,0|1|1|1|1|1
Pleasanton,37.6624,121.8747,550,190,0|1|1|1|1|1
Livermore,37.6819,121.7680,640,170,1|1|1|1|1|1
Palo Alto,37.4419,122.1430,340,410,0|0|1|1|1|1
San Jose,37.3382,121.8863,540,515,1|0|1|1|1|1